시설이름,시설종류,주소,경도,위도,지정범위기준
서울특별시교육청 직장어린이집,어린이집,서울특별시 용산구 두텁바위로 37,126.975716,37.54623584,50m
데시앙아띠어린이집,어린이집,서울특별시 용산구 효창원로 227 106동 1층,126.9629057,37.54752995,50m
원효루미니어린이집,어린이집,서울특별시 용산구 원효로97길 15 1층,126.969381,37.54145907,50m
서머힐어린이집,어린이집,"서울특별시 용산구 장문로 27 상가동, 102호 (이태원동, 청화아파트)",126.9936736,37.52910835,50m
삼각지어린이집,어린이집,"서울특별시 용산구 백범로99길 40 1,2층",126.9716462,37.53582388,50m
큰나래어린이집,어린이집,"서울특별시 용산구 서빙고로 17 102동 1,2,3층",126.9678958,37.5252553,50m
국립중앙박물관 해누림 어린이집,어린이집,서울특별시 용산구 서빙고로 137 국립중앙박물관,126.9776012,37.52349496,50m
목멱어린이집,어린이집,서울특별시 용산구 회나무로12나길 10,126.9909255,37.53904801,50m
용산소방서직장어린이집,어린이집,서울특별시 용산구 한강대로 167 용산소방서,126.971579,37.53408944,50m
용산캐슬어린이집,어린이집,"서울특별시 용산구 백범로 313 키즈클럽(효창동,롯데캐슬센터포레)",126.9630736,37.53981745,50m
해늘어린이집,어린이집,"서울특별시 용산구 이촌로34길 29 이촌동, 현대한강아파트 관리동",126.956664,37.52363689,50m
동부이촌어린이집,어린이집,서울특별시 용산구 이촌로 193 관리동 1층,126.9683937,37.52159354,50m
삼일어린이집,어린이집,"서울특별시 용산구 한강대로 95 B동 4층 410호(한강로2가,래미안용산)",126.9673947,37.52954731,50m
사랑꿈어린이집,어린이집,서울특별시 용산구 원효로 216 관리동 1층,126.9665272,37.53672264,50m
사랑나무어린이집,어린이집,서울특별시 용산구 후암로 4-8 후암동,126.9788165,37.54635357,50m
맑은숲어린이집,어린이집,서울특별시 용산구 한남대로40길 76 맑은숲어린이집,127.0032951,37.54503816,50m
아모레퍼시픽 서울어린이집,어린이집,서울특별시 용산구 한강대로 100 (주)아모레퍼시픽 2층,126.9686757,37.52879082,50m
꿈나무어린이집,어린이집,서울특별시 용산구 원효로1가 백범로 329 꿈나무어린이집,126.9657927,37.53839694,50m
용문어린이집,어린이집,서울특별시 용산구 효창원로 88 브라운스톤용산 104-103,126.9591211,37.5364163,50m
새순어린이집,어린이집,"서울특별시 용산구 원효로35길 37-7 1,2층",126.9551914,37.53489413,50m
늘봄어린이집,어린이집,서울특별시 용산구 이촌로2가길 122 105동 106호,126.9551678,37.5250472,50m
새둥지어린이집,어린이집,서울특별시 용산구 이촌로65가길 3 110동 101호,126.9719635,37.52231164,50m
푸른꿈어린이집,어린이집,"서울특별시 용산구 백범로 260 효창파크푸르지오아파트 104동, 1층",126.9583324,37.54023934,50m
샘물어린이집,어린이집,서울특별시 용산구 원효로4가 원효로19길 49,126.9545942,37.53421027,50m
순천향대학교서울병원어린이집,어린이집,서울특별시 용산구 독서당로20길 9-5 1층,127.0048128,37.5316743,50m
지구촌어린이집,어린이집,서울특별시 용산구 회나무로28길 13,126.9921972,37.53937967,50m
더프라임어린이집,어린이집,"서울특별시 용산구 원효로90길 11 (원효로1가, 용산더프라임)",126.9697164,37.54039598,50m
푸른숲속어린이집,어린이집,"서울특별시 용산구 효창원로 17 104동 103호(산천동, 리버힐삼성아파트)",126.9508027,37.53487888,50m
노벨어린이집,어린이집,서울특별시 용산구 후암로22길 10 104호(후암동),126.977295,37.55139781,50m
숙명직장어린이집,어린이집,서울특별시 용산구 청파로47길 100 사회교육관 1층(숙명여자대학교 제2캠퍼스),126.9650748,37.54547273,50m
DB손해보험 아이사랑 어린이집,어린이집,서울특별시 용산구 후암로 107 게이트웨이타워 3층,126.9735634,37.55346139,50m
미래어린이집,어린이집,서울특별시 용산구 후암로16나길 13,126.9783088,37.54903665,50m
고운꿈어린이집,어린이집,"서울특별시 용산구 이촌로 181 106동 102호(이촌동, 한강대우아파트)",126.9706619,37.52215363,50m
초록어린이집,어린이집,"서울특별시 용산구 이촌로 181 108동 103호(이촌동, 한강대우아파트)",126.9709378,37.52243121,50m
IBK 참!좋은 어린이집,어린이집,서울특별시 용산구 한남대로 72 4층,127.0070565,37.53506698,50m
생각이자라는어린이집,어린이집,"서울특별시 용산구 이촌로 100-8 103동 102호 (이촌제2동, 동아그린아파트)",126.9582677,37.52425105,50m
즐거운어린이집,어린이집,서울특별시 용산구 이촌로 201 202동 101호(한가람아파트),126.9701554,37.52134981,50m
꼬마성어린이집,어린이집,"서울특별시 용산구 장문로6길 76 1단지 1-3 (동빙고동,용산푸르지오파크타운)",126.9955823,37.52587114,50m
행복한어린이집,어린이집,서울특별시 용산구 원효로 216 신계동49 이편한테마트 1층 101호,126.9656948,37.53596196,50m
청화어린이집,어린이집,"서울특별시 용산구 보광로 14 A동 108호(보광동, 신동아1차아파트)",127.0017389,37.52574417,50m
서빙고어린이집,어린이집,서울특별시 용산구 녹사평대로 66 대우푸르지오파크타운 208동앞,126.9947308,37.52519906,50m
도원삼성어린이집,어린이집,"서울특별시 용산구 새창로 70 112동 104호(도원동, 삼성래미안아파트)",126.9552593,37.5383072,50m
용산구청직장어린이집,어린이집,서울특별시 용산구 녹사평대로 150 종합행정타운 1층 (이태원동),126.9903466,37.53244208,50m
맘앤키즈어린이집,어린이집,"서울특별시 용산구 효창원로 17 107동 105호(산천동, 삼성리버힐아파트)",126.9508027,37.53487888,50m
한강로어린이집,어린이집,서울특별시 용산구 서빙고로 35 111호~113호(용산시티파크1단지),126.9687431,37.52467326,50m
국방부청사어린이집,어린이집,서울특별시 용산구 이태원로 22 국방부 (용산동3가),126.9776714,37.53358278,50m
예꿈어린이집,어린이집,서울특별시 용산구 이촌로 347 1동 102호,126.9896384,37.51903846,50m
늘해랑어린이집,어린이집,"서울특별시 용산구 이촌로29길 21-7 103동 102호(한강로3가, 우림필유아파트)",126.9597476,37.52546826,50m
아이제일어린이집,어린이집,서울특별시 용산구 이태원로49길 24-7 아이제일어린이집 (한남동),126.9992936,37.53746496,50m
하연어린이집,어린이집,서울특별시 용산구 효창원로86라길 31-10 현대휴먼101호 (청파동1가),126.9666963,37.548094,50m
누리터어린이집,어린이집,"서울특별시 용산구 백범로90길 74 102동 102호(문배동, 용산이안아파트)",126.9685765,37.5367195,50m
영주어린이집,어린이집,서울특별시 용산구 두텁바위로 91 (후암동),126.9816898,37.54743044,50m
한남어린이집,어린이집,서울특별시 용산구 대사관로5길 1 (한남동),127.0004722,37.53453304,50m
완두콩어린이집,어린이집,서울특별시 용산구 청파로71길 58 아이딜아파트 101호 (청파동1가),126.9669722,37.54942454,50m
백송어린이집,어린이집,서울특별시 용산구 효창원로76길 25-6,126.9633574,37.54354693,50m
소월어린이집,어린이집,서울특별시 용산구 신흥로18길 3-5,126.9858175,37.54613603,50m
신태양 어린이집,어린이집,서울특별시 용산구 만리재로 178 (서계동),126.9660274,37.55399714,50m
새랑꿈이랑 어린이집,어린이집,서울특별시 용산구 새창로 70 삼성래미안아파트 단지내 (도원동),126.9552593,37.5383072,50m
효창방과후어린이집,어린이집,서울특별시 용산구 효창원로 146-12,126.9629821,37.54123427,50m
새꿈어린이집,어린이집,서울특별시 용산구 후암로57길 26 (동자동),126.9733573,37.55238518,50m
새날어린이집,어린이집,서울특별시 용산구 새창로8길 7 삼성래미안아파트 2단지내 관리동1층 (도원동),126.9554845,37.53910755,50m
솔어린이집,어린이집,서울특별시 용산구 장문로 95 (보광동),127.0001453,37.52630015,50m
반석어린이집,어린이집,서울특별시 용산구 효창원로 178 (청파동3가),126.9626628,37.54361561,50m
꿈밭어린이집,어린이집,서울특별시 용산구 이촌로81길 34 꿈밭어린이집,126.9786745,37.52000465,50m
꿈동이어린이집,어린이집,"서울특별시 용산구 이촌로87길 21 101동 101호(이촌동, 이촌코오롱)",126.9786745,37.52000465,50m
효창어린이집,어린이집,서울특별시 용산구 효창원로69길 14-3 (효창동),126.9606909,37.54156462,50m
이태원삼성어린이집,어린이집,서울특별시 용산구 이태원로27길 34-30,126.9953858,37.53532514,50m
새싹어린이집,어린이집,서울특별시 용산구 원효로67길 13 (원효로2가),126.9638906,37.53756691,50m
엘지유플러스어린이집,어린이집,서울특별시 용산구 한강로3가 한강대로 32,126.9635283,37.52384284,50m
용산교회어린이집,어린이집,서울특별시 용산구 원효로1가 백범로77길 36,126.9655838,37.53982444,50m
상록어린이집,어린이집,서울특별시 용산구 백범로45길 4 (효창동),126.9583035,37.54095702,50m
도원어린이집,어린이집,서울특별시 용산구 효창원로37마길 8 도원어린이집 (용문동),126.9585708,37.53825626,50m
후암어린이집,어린이집,서울특별시 용산구 두텁바위로1길 86 (후암동),126.9758361,37.54765193,50m
해방어린이집,어린이집,서울특별시 용산구 소월로20길 43 해방어린이집 (용산동2가),126.9851444,37.54428402,50m
절제어린이집,어린이집,서울특별시 용산구 후암로57길 57 (동자동),126.9741571,37.55092073,50m
원효어린이집,어린이집,서울특별시 용산구 원효로41가길 14-19,126.9566433,37.53480088,50m
청파어린이집,어린이집,서울특별시 용산구 청파로49길 19 (청파동2가),126.9690391,37.54528251,50m
동빙고어린이집,어린이집,서울특별시 용산구 녹사평대로14길 7 (동빙고동),126.9939889,37.52357987,50m
이촌어린이집,어린이집,서울특별시 용산구 이촌로14길 11-22,126.9544763,37.5270743,50m
이태원어린이집,어린이집,서울특별시 용산구 녹사평대로40나길 38-3,126.9888363,37.53627931,50m
서계어린이집,어린이집,서울특별시 용산구 청파로93길 25 서계어린이집,126.9682985,37.55352595,50m
용산어린이집,어린이집,서울특별시 용산구 한강로2가 한강대로38길 28 용산어린이집,126.9692281,37.52814224,50m
독일인학교,외국인교육기관,서울특별시 용산구 독서당로 129,127.012161,37.53781156,50m
용산국제학교,국제학교,서울특별시 용산구 이태원로 285,127.001136,37.54102695,50m
구립맑은숲 어린이집,어린이집,서울특별시 용산구 한남대로40길76,127.0032951,37.54503816,50m
충신교회어린이집,어린이집,서울특별시 용산구 이촌로64길 72,126.9677697,37.52052298,50m
원유치원,유치원,서울특별시 용산구 이촌로81길 14,126.9768168,37.5196486,50m
대건유치원,유치원,서울특별시 용산구 이촌로81길 38,126.9778555,37.52071271,50m
계성유치원,유치원,서울특별시 용산구 효창원로15길 15,126.9527815,37.53586046,50m
한가람유치원,유치원,서울특별시 용산구 이촌로89길 50,126.981263,37.51952037,50m
강변유치원,유치원,서울특별시 용산구 이촌로84길 9-7,126.9774173,37.51833758,50m
복자유치원,유치원,서울특별시 용산구 후암로34길 21-8,126.9781812,37.55200632,50m
도원유치원,유치원,서울특별시 용산구 새창로12길 11-8,126.9578633,37.53877767,50m
일민유치원,유치원,서울특별시 용산구 효창원로 17,126.9501826,37.53443266,50m
충신유치원,유치원,서울특별시 용산구 이촌로71길 10,126.9729806,37.52049032,50m
한강초교,초등학교,서울특별시 용산구 한강대로14길 9,126.9650994,37.52522617,50m
용산초교,초등학교,서울특별시 용산구 한강대로57길 33,126.9725506,37.53561344,50m
신광초교,초등학교,서울특별시 용산구 청파로 213,126.9703507,37.53859775,50m
삼광초교,초등학교,서울특별시 용산구 두텁바위로1나길 19,126.9765936,37.5477533,50m
금양초교,초등학교,서울특별시 용산구 효창원로 137,126.9618318,37.5409415,50m
후암초교,초등학교,서울특별시 용산구 두텁바위로 140,126.9817258,37.55136541,50m
청파초교(병설유치원),초등학교,서울특별시 용산구 효창원로 228,126.963544,37.5473031,50m
이태원초교,초등학교,서울특별시 용산구 녹사평대로40길 19,126.9876718,37.53647807,50m
남정초교(병설유치원),초등학교,서울특별시 용산구 원효로64길 17-10,126.9648033,37.53567338,50m
한남초교(병설유치원),초등학교,서울특별시 용산구 한남대로 112,127.0055986,37.5392032,50m
서빙고초교(병설유치원),초등학교,서울특별시 용산구 서빙고로51길 14,126.9923004,37.52206964,50m
신용산초교,초등학교,서울특별시 용산구 이촌로 255,126.9753668,37.52062932,50m
원효초교,초등학교,서울특별시 용산구 효창원로13길 38,126.9515471,37.53616243,50m
용암초교,초등학교,서울특별시 용산구 서울특별시 용산구 녹사평대로60길 39,126.9894356,37.54530443,50m
한강중학교,중학교,서울특별시 용산구 녹사평대로 73,126.9920948,37.52410589,-
용산중학교,중학교,서울특별시 용산구 두텁바위로 74,126.9810074,37.54602418,-
용강중학교,중학교,서울특별시 용산구 이촌로65가길 91,126.9757422,37.52131777,-
오산중학교,중학교,서울특별시 용산구 보광로7길 17,126.999543,37.52399083,-
신광여자중학교,중학교,서울특별시 용산구 청파로 263,126.9701859,37.54333696,-
성심여자중학교,중학교,서울특별시 용산구 원효로19길 49,126.9548564,37.53455996,-
선린중학교,중학교,서울특별시 용산구 원효로97길 33-4,126.96504,37.54259313,-
보성여자중학교,중학교,서울특별시 용산구 신흥로3가길 66,126.9849766,37.54251626,-
배문중학교,중학교,서울특별시 용산구 효창원로 258,126.9638913,37.54990529,-
신광초등학교,초등학교,서울특별시 용산구 청파로 263,126.9705618,37.54272438,-
서울후암초등학교,초등학교,서울특별시 용산구 두텁바위로 140,126.9823731,37.55128983,-
서울한남초등학교,초등학교,서울특별시 용산구 한남대로 112,127.0049242,37.53940506,-
서울한강초등학교,초등학교,서울특별시 용산구 한강대로14길 9,126.9650797,37.52521824,-
서울청파초등학교,초등학교,서울특별시 용산구 효창원로 228,126.9642996,37.54798809,-
서울이태원초등학교,초등학교,서울특별시 용산구 녹사평대로40길 19,126.9880656,37.53599878,-
서울원효초등학교,초등학교,서울특별시 용산구 효창원로13길 38,126.9514748,37.53608311,-
서울용암초등학교,초등학교,서울특별시 용산구 녹사평대로60길 39,126.9895487,37.54531616,-
서울용산초등학교,초등학교,서울 용산구 한강대로57길 33,126.9725401,37.53560335,-
서울신용산초등학교,초등학교,서울특별시 용산구 이촌로 255,126.9757911,37.52048615,-
서울서빙고초등학교,초등학교,서울특별시 용산구 서빙고로51길 14,126.9922399,37.52124792,-
서울삼광초등학교,초등학교,서울특별시 용산구 두텁바위로1나길 19,126.9765259,37.54729919,-
서울보광초등학교,초등학교,서울특별시 용산구 우사단로 20,126.996461,37.53265121,-
서울남정초등학교,초등학교,서울특별시 용산구 원효로64길 17-10,126.9650292,37.53650597,-
서울금양초등학교,초등학교,서울특별시 용산구 효창원로 137,126.9611212,37.54081153,-
용산철도고등학교,고등학교,서울특별시 용산구 서빙고로 24,126.9669332,37.52429434,-
학력인정 서울자동차고등학교,고등학교,서울특별시 용산구 백범로45길 15,126.9585048,37.54153864,-
지구촌기독외국인학교,외국인학교,서울특별시 용산구 독서당로 115,127.0117897,37.53674842,-
서울독일학교,외국인학교,서울특별시 용산구 독서당로 123-6,127.011903,37.53734307,-
서울용산국제학교,외국인학교,서울특별시 용산구 이태원로 285,127.001136,37.54102695,-
서울디지텍고등학교,고등학교,서울특별시 용산구 회나무로12길 27,126.9907309,37.53901196,-
선린인터넷고등학교,고등학교,서울특별시 용산구 원효로97길 33-4,126.9671853,37.54275592,-
오산고등학교,고등학교,서울특별시 용산구 보광로7길 17,126.9996063,37.5235115,-
신광여자고등학교,고등학교,서울특별시 용산구 청파로 263,126.9696158,37.54295479,-
성심여자고등학교,고등학교,서울특별시 용산구 원효로19길 49,126.9536889,37.53440454,-
보성여자고등학교,고등학교,서울특별시 용산구 신흥로3가길 66,126.9843077,37.54311984,-
배문고등학교,고등학교,서울특별시 용산구 효창원로 258,126.9646246,37.55000642,-
중경고등학교,고등학교,서울특별시 용산구 이촌로84길 34,126.9756845,37.51777861,-
용산고등학교,고등학교,서울특별시 용산구 두텁바위로 60,126.9798035,37.54565277,-
삼광초등학교,초등학교,서울특별시 용산구 두텁바위로1나길 19,126.976551,37.54775231,50m
후암초등학교,초등학교,서울특별시 용산구 두텁바위로 140,126.9817243,37.55136541,50m
용암초등학교,초등학교,서울특별시 용산구 녹사평대로60길 39,126.9889455,37.54455872,50m
청파초등학교,초등학교,서울특별시 용산구 효창원로 228,126.9635439,37.5473049,50m
원효초등학교,초등학교,서울특별시 용산구 효창원로13길 38,126.9515453,37.53616126,50m
금양초등학교,초등학교,서울특별시 용산구 효창원로 137,126.9618319,37.54094231,50m
용산초등학교,초등학교,서울특별시 용산구 한강대로57길 33,126.9725506,37.53561344,50m
신용산초등학교,초등학교,서울특별시 용산구 이촌로 255,126.9753663,37.52062959,50m
이태원초등학교,초등학교,서울특별시 용산구 녹사평대로40길 19,126.9876727,37.53647771,50m
서빙고초등학교,초등학교,서울특별시 용산구 서빙고로51길 14,126.9923004,37.52206892,50m
보광초등학교,초등학교,서울특별시 용산구 우사단로 20,126.996313,37.532578,50m
용산공업고등학교,고등학교,서울특별시 용산구 서빙고로 24,126.9673581,37.52434158,50m
서울맹학교,특수학교,서울특별시 용산구 한강대로57길 5,126.9725506,37.53561344,50m
서울자동차고등학교,고등학교,서울특별시 용산구 백범로45길 15,126.9584137,37.54149798,50m
효창공원(근린공원),공원,서울특별시 용산구 효창원로 177-18,126.9622909,37.54495741,0m
새나라(어린이공원),공원,,126.976552,37.54791488,0m
삼각지(어린이공원),공원,,126.9754551,37.534406,0m
한마음(어린이공원),공원,,126.9700205,37.528437,0m
늘푸른(어린이공원),공원,서울특별시 용산구 원효로41가길 14-19,126.9565572,37.53479369,0m
청파(어린이공원),공원,,126.9682992,37.553547,0m
꿈나무(소공원),공원,서울특별시 용산구 이촌로 219,126.971702,37.520776,0m
새싹(어린이공원),공원,,126.954469,37.526912,0m
동자(어린이공원),공원,,126.9739452,37.550084,0m
소월길(어린이공원),공원,,126.989227,37.543548,0m
이촌(소공원),공원,,126.979774,37.518755,0m
새푸리(소공원),공원,,126.967826,37.521589,0m
효창(어린이공원),공원,,126.9585555,37.54279367,0m
강변(소공원),공원,,126.975018,37.521325,0m
이태원(어린이공원),공원,,126.989012,37.53840553,0m
도원(어린이공원),공원,,126.955071,37.537199,0m
비상(소공원),공원,,126.971379,37.522317,0m
청탑(소공원),공원,,126.977273,37.51783937,0m
새꿈(어린이공원),공원,,126.974457,37.55254767,0m
사촌(소공원),공원,,126.970908,37.520618,0m
강변복지(소공원),공원,,126.965884,37.521102,0m
돌모루(어린이공원),공원,,126.968524,37.542716,0m
문배(어린이공원),공원,,126.9698073,37.53661975,0m
솔밭(어린이공원),공원,,126.973641,37.537225,0m
신창동(어린이공원),공원,,126.9541101,37.536643,0m
서계가로(어린이공원),공원,,126.964238,37.55127635,0m
응봉(근린공원),공원,,127.0047763,37.544968,0m
기와터(근린공원),공원,,126.969648,37.52581297,0m
서빙고(근린공원),공원,,126.9712832,37.52478697,0m
신계(역사공원),공원,,126.9662814,37.53508032,0m
이태원마을숲(소공원),공원,,126.991487,37.541744,0m
독서당(소공원),공원,,127.012449,37.5345083,0m
한남(소공원),공원,,127.013853,37.537214,0m
이태원어린이놀이터(소공원),공원,,126.989923,37.535647,0m
별님(소공원),공원,서울특별시 용산구 백범로90길 84-19,126.969203,37.538104,0m
한강대로(소공원),공원,,126.9635746,37.52410583,0m
이태원부군당(역사공원),공원,서울특별시 용산구 녹사평대로40다길 37,126.989729,37.53587802,0m
동빙고(근린공원),공원,서울특별시 용산구 이촌로 344-15,126.983958,37.517378,0m
두텁바위(어린이공원),공원,서울특별시 용산구 후암로57길 26-7,126.973744,37.552149,0m
후암(어린이공원),공원,서울특별시 용산구 신흥로20길 35-4,126.9839081,37.547128,0m
해님(소공원),공원,서울특별시 용산구 원효로90길 34,126.9703774,37.539022,0m
달님(소공원),공원,서울특별시 용산구 청파로 205-15,126.969726,37.538368,0m
이촌한우리(소공원),공원,,126.981145,37.5172264,0m
신용산(가로공원),공원,,126.969098,37.529168,0m
용산역,광장,서울특별시 용산구 한강대로23길 55,126.9647415,37.5297718,용산역전면광장
한남초등학교,초등학교,서울특별시 용산구 한남대로 112,127.0055998,37.53920365,한남초 측면 단편보행로 150m
한강초등학교,초등학교,서울특별시 용산구 한강대로14길 9,126.9650994,37.5252055,정문앞 통학로 100m 및 맞은편 통학로 100m
남정초등학교,초등학교,서울특별시 용산구 원효로64길 17-10,126.9648037,37.53567383,"정문앞 통학로 42m 및 우측 주통학로 98m,후문앞 통학로 85m"
신용산역 일대,광장,서울특별시 용산구 한강대로 112,126.9682159,37.52961556,"신용산역 일대 보행로, 용산어린이정원 주출입구 전면 공간, 용산역잔디광장, 용산파크웨이 조성 현장"
게이트웨이타워 일대,광장,서울특별시 용산구 후암로 107,126.973588,37.553464,"게이트웨이타워 일대 보도, 차도 430m"
용산더프라임 일대,광장,서울특별시 용산구 원효로90길 11,126.9697185,37.5403958,용산더프라임 일대 보도 430m
서울역 공항철도 1번출구,광장,서울특별시 용산구 청파로378,126.9716723,37.5563982,서울역광장일부
한국철도공사 서부역 방면,택시승강장,서울특별시 용산구 청파로 388,126.9691101,37.55432707,10m
한국철도공사 서부역 방면,택시승강장,서울특별시 용산구 청파로 388,126.9691101,37.55432707,10m
한국철도공사 서부역 방면,택시승강장,서울특별시 용산구 청파로 388,126.9691101,37.55432707,10m
소화아동병원 앞(서울서부역 건너),택시승강장,서울특별시 용산구 청파로 383,126.9686725,37.55376869,10m
주연빌딩 앞(우리은행),택시승강장,서울특별시 용산구 청파로 345,126.9693542,37.5503049,10m
용산빌딩 건너(더조은참치 앞),택시승강장,서울특별시 용산구 한강대로 276,126.9728973,37.54288252,10m
썬힐환전소 앞(우리은행 한남동지점 좌측),택시승강장,서울특별시 용산구 이태원로 237,126.9995129,37.53626391,10m
폭스바겐 앞,택시승강장,서울특별시 용산구 이태원로 262,127.0016177,37.53791084,10m
꼼데가르송 앞,택시승강장,서울특별시 용산구 이태원로 261,127.0012344,37.53814159,10m
단국빌딩 앞(기업은행),택시승강장,서울특별시 용산구 한남대로 72,127.0070553,37.53506555,10m
순천향대학교병원 앞,택시승강장,서울특별시 용산구 대사관로 59,127.003878,37.53428084,10m
용산가족공원 앞(국립한글박물관 앞),택시승강장,서울특별시 용산구 서빙고로 139,126.9804863,37.5210688,10m
하이브 본사 앞,택시승강장,서울특별시 용산구 한강대로 42,126.9641977,37.52454565,10m
용산역 아이파크몰,택시승강장,서울특별시 용산구 한강대로23길 55,126.9647415,37.5297718,10m
용산역 아이파크몰 건너편,택시승강장,서울특별시 용산구 한강대로 95,126.9666538,37.52881739,10m
용산우체국 앞,택시승강장,서울특별시 용산구 한강대로 118,126.9695106,37.53000901,10m
효창공원역 5번출구 앞,택시승강장,서울특별시 용산구 원효로71길 42-1,126.9627847,37.53832494,10m
삼원빌딩(기업은행 앞),택시승강장,서울특별시 용산구 원효로 142,126.9590997,37.53408217,10m
삼구빌딩(하나은행 앞),택시승강장,서울특별시 용산구 청파로 40,126.9560445,37.53180326,10m
래미안용산더센트럴,광장,한강대로 95,126.9666538,37.52881739,용산역 방면 보행로 150m
서울역 공항철도 3번출구,광장,서울특별시 용산구 청파로378,126.9252912,37.55856739,서울역광장일부
서울역 공항철도 15번출구,광장,서울특별시 용산구 청파로378,126.9693873,37.5536586,서울역광장일부
서울역,버스정류소,,37.553928,126.972535,10m
한강대교북단.LG유플러스,버스정류소,,37.52404994,126.963121,10m
한강대교북단.LG유플러스,버스정류소,,37.52430606,126.9631848,10m
신용산역,버스정류소,,37.527293,126.966207,10m
신용산역,버스정류소,,37.52792049,126.9666192,10m
용산우체국,버스정류소,,37.53149701,126.970235,10m
용산우체국,버스정류소,,37.53205037,126.9705641,10m
삼각지역.전쟁기념관,버스정류소,,37.53518014,126.9736858,10m
삼각지역.전쟁기념관,버스정류소,,37.5359845,126.9741609,10m
숙대입구역,버스정류소,,37.54329563,126.9725378,10m
숙대입구역,버스정류소,,37.54375602,126.9722321,10m
갈월동,버스정류소,,37.5509756,126.9722373,10m
갈월동,버스정류소,,37.54953372,126.9717082,10m
남영역.민주화운동기념관,버스정류소,,37.54200692,126.9719272,10m
남영역.민주화운동기념관,버스정류소,,37.541823,126.972069,10m
신용산역3번출구,버스정류소,,37.52888957,126.9673498,10m
서울드래곤시티,버스정류소,,37.53215669,126.9630604,10m
용산역3번출구.용산차고지,버스정류소,,37.53180791,126.9642146,10m
한강대교북단,버스정류소,,37.52496899,126.9635707,10m
서계동.서울역공항철도15번출구,버스정류소,,37.5524743,126.9693405,10m
서계동,버스정류소,,37.5516705,126.969222,10m
청파동,버스정류소,,37.54899162,126.970122,10m
청파시장,버스정류소,,37.54867903,126.9698626,10m
숙대입구역.청파동주민센터,버스정류소,,37.54538125,126.9707772,10m
숙대입구역.청파동주민센터,버스정류소,,37.54548616,126.9704189,10m
남영역.민주화운동기념관,버스정류소,,37.540813,126.971032,10m
남영역.민주화운동기념관,버스정류소,,37.54057027,126.9706761,10m
용산전자상가17동,버스정류소,,37.53377926,126.9660271,10m
용산전자상가19동,버스정류소,,37.53351349,126.9657072,10m
용산전자상가10동,버스정류소,,37.5332725,126.9619641,10m
용산전자상가12동,버스정류소,,37.53305741,126.962169,10m
용산전자상가.전자랜드,버스정류소,,37.53277906,126.9583252,10m
용산전자상가.전자랜드,버스정류소,,37.53305612,126.9583364,10m
원효대교북단,버스정류소,,37.53198537,126.956111,10m
용산경찰서,버스정류소,,37.54050321,126.9691858,10m
용산경찰서,버스정류소,,37.53999946,126.9690615,10m
용산꿈나무종합타운.원효로우체국,버스정류소,,37.5386139,126.9669291,10m
용산e편한세상,버스정류소,,37.53746206,126.9654678,10m
남정초등학교,버스정류소,,37.53631875,126.9636632,10m
원효로2가,버스정류소,,37.53623744,126.9629911,10m
원효로2가사거리,버스정류소,,37.53493384,126.9610704,10m
원효로3가,버스정류소,,37.53404076,126.9581798,10m
원효로3가,버스정류소,,37.53379572,126.9583248,10m
용암초등학교입구.이태원주공아파트,버스정류소,,37.54411594,126.9886646,10m
이태원동남산대림아파트.용산동아파트,버스정류소,,37.53987437,126.98748,10m
용산한신아파트,버스정류소,,37.53980547,126.9871086,10m
해방촌,버스정류소,,37.53781774,126.9866091,10m
국군재정관리단,버스정류소,,37.53731771,126.9868496,10m
용산구청,버스정류소,,37.530303,126.991163,10m
용산구청,버스정류소,,37.52940958,126.9911699,10m
한강중학교,버스정류소,,37.52545875,126.9921715,10m
한강중학교,버스정류소,,37.52450259,126.9924288,10m
서빙고역1번출구,버스정류소,,37.52004642,126.9899502,10m
장충단로입구,버스정류소,,37.545795,127.002202,10m
남산맨션아파트.남산예술원,버스정류소,,37.544437,127.00204,10m
서울시기술교육원중부.블루스퀘어,버스정류소,,37.54169186,127.0033852,10m
서울시기술교육원중부.블루스퀘어,버스정류소,,37.54117915,127.0031508,10m
순천향대학병원,버스정류소,,37.53644224,127.0057302,10m
순천향대학병원,버스정류소,,37.5356114,127.0062994,10m
순천향대학병원,버스정류소,,37.53579346,127.0054994,10m
순천향대학병원.한남오거리,버스정류소,,37.53549068,127.005729,10m
한남오거리,버스정류소,,37.53284782,127.0083126,10m
남산도서관.용산도서관,버스정류소,,37.552282,126.980835,10m
남산도서관.용산도서관,버스정류소,,37.55204425,126.981134,10m
후암약수터,버스정류소,,37.54869,126.98432,10m
후암약수터,버스정류소,,37.54839526,126.9841669,10m
용산2가동주민센터.보성여중고,버스정류소,,37.54639685,126.98584,10m
용산2가동주민센터.보성여중고,버스정류소,,37.54625985,126.9856318,10m
남산야외식물원입구,버스정류소,,37.54270388,126.9927902,10m
남산야외식물원입구,버스정류소,,37.54250475,126.992917,10m
하얏트호텔,버스정류소,,37.54175355,126.9961358,10m
하얏트호텔,버스정류소,,37.5408661,126.9974258,10m
용마루고개(서울자동차고등학교),버스정류소,,37.54063689,126.9584647,10m
용마루고개.효창파크푸르지오아파트,버스정류소,,37.54029991,126.958552,10m
효창공원앞역.이봉창역사울림관,버스정류소,,37.53927197,126.9618971,10m
효창공원앞역.이봉창역사울림관,버스정류소,,37.53882848,126.9626979,10m
용산꿈나무종합타운.보건분소,버스정류소,,37.53842682,126.9649998,10m
용산꿈나무종합타운.보건분소,버스정류소,,37.538295,126.964648,10m
원효로제1동주민센터,버스정류소,,37.53766072,126.9669923,10m
전쟁기념관,버스정류소,,37.53475867,126.9768578,10m
전쟁기념관,버스정류소,,37.53465117,126.9753831,10m
녹사평역,버스정류소,,37.53510696,126.9851183,10m
녹사평역,버스정류소,,37.53475822,126.9853047,10m
용산구청.이태원시장,버스정류소,,37.53438305,126.9904707,10m
용산구청.이태원시장,버스정류소,,37.53411271,126.9900096,10m
이태원역1번출구.해밀턴호텔,버스정류소,,37.534552,126.993043,10m
이태원역4번출구.해밀턴호텔,버스정류소,,37.53435397,126.9934293,10m
이태원119안전센터,버스정류소,,37.53479,126.996387,10m
이태원119안전센터,버스정류소,,37.53460415,126.9971799,10m
한남동주민센터,버스정류소,,37.53704589,127.0004667,10m
한남동주민센터,버스정류소,,37.5367073,127.0006043,10m
한강진역.블루스퀘어,버스정류소,,37.540805,127.001695,10m
한강진역.블루스퀘어,버스정류소,,37.54092918,127.0020254,10m
서울역11번출구,버스정류소,,37.55361688,126.9738944,10m
후암삼거리,버스정류소,,37.55254084,126.9765772,10m
후암시장,버스정류소,,37.55068919,126.9770645,10m
후암시장,버스정류소,,37.54974673,126.9775446,10m
용산중고,버스정류소,,37.54665979,126.9781856,10m
용산중고,버스정류소,,37.547205,126.978225,10m
후암동종점.용산중학교,버스정류소,,37.54669893,126.9809588,10m
용산고등학교,버스정류소,,37.54574,126.977563,10m
서울시교육청.남영동주민센터,버스정류소,,37.545772,126.976572,10m
서울시교육청.남영동주민센터,버스정류소,,37.545505,126.975732,10m
남영우체국,버스정류소,,37.54512412,126.9732354,10m
갈월동사회복지관.남영우체국,버스정류소,,37.545409,126.973962,10m
한남시범아파트,버스정류소,,37.53794297,127.0122608,10m
한남시범아파트,버스정류소,,37.53770414,127.0126715,10m
한남동,버스정류소,,37.5339127,127.0084446,10m
한남동,버스정류소,,37.53375499,127.0087003,10m
이촌동동부센트레빌,버스정류소,,37.52155954,126.9660096,10m
이촌동두산위브트레지움.한강대우아파트,버스정류소,,37.52157348,126.9675283,10m
이촌1동충신교회앞,버스정류소,,37.52128315,126.9684808,10m
이촌동한가람아파트.이촌역,버스정류소,,37.5206563,126.9718843,10m
이촌동한강맨션.이촌역,버스정류소,,37.52018049,126.9727098,10m
신용산초등학교,버스정류소,,37.51984977,126.9745085,10m
신용산초등학교.중경고등학교,버스정류소,,37.51907753,126.976248,10m
중경고등학교.이촌동강촌아파트,버스정류소,,37.51891785,126.9775234,10m
이촌동점보아파트,버스정류소,,37.5183828,126.9784409,10m
이촌동현대아파트,버스정류소,,37.51853368,126.978712,10m
금강병원.반도아파트,버스정류소,,37.51770433,126.9811234,10m
서빙고신동아아파트,버스정류소,,37.51793695,126.9851054,10m
서빙고신동아아파트,버스정류소,,37.51748597,126.9853714,10m
만리동고개,버스정류소,,37.55167001,126.9628216,10m
손기정체육공원,버스정류소,,37.55421533,126.966423,10m
숙대입구역,버스정류소,,37.544479,126.970799,10m
남영역.민주화운동기념관,버스정류소,,37.54222024,126.9709245,10m
숙명여대도서관앞,버스정류소,,37.54484687,126.9672217,10m
숙명여대도서관앞,버스정류소,,37.54484124,126.9664465,10m
숙명여대정문,버스정류소,,37.5449595,126.9641095,10m
숙명여대정문,버스정류소,,37.54513077,126.9643097,10m
숙명여대후문.이봉창활동터,버스정류소,,37.54608397,126.9632996,10m
효창공원후문,버스정류소,,37.54679103,126.9625779,10m
한겨레신문사입구,버스정류소,,37.54588062,126.9591929,10m
대한노인회중앙회,버스정류소,,37.54378904,126.9576684,10m
효창운동장.효창동주민센터,버스정류소,,37.54220952,126.9617671,10m
효창동주민센터.금양초등학교,버스정류소,,37.54162396,126.9622337,10m
금양초등학교,버스정류소,,37.54129925,126.9620007,10m
효창공원역,버스정류소,,37.53878602,126.9610379,10m
도원삼성래미안아파트,버스정류소,,37.5397768,126.9574339,10m
도원삼성래미안아파트,버스정류소,,37.53962541,126.9572103,10m
중앙하이츠빌라앞,버스정류소,,37.53801446,126.9600336,10m
중앙하이츠빌라앞,버스정류소,,37.53797386,126.9598809,10m
용문시장,버스정류소,,37.53634792,126.960968,10m
용문시장,버스정류소,,37.5359792,126.9613596,10m
용산전자상가입구,버스정류소,,37.53457017,126.9622225,10m
용산전자상가입구,버스정류소,,37.53466112,126.9619447,10m
신용산지하차도,버스정류소,,37.53283488,126.9636682,10m
신용산지하차도,버스정류소,,37.53259,126.963882,10m
신용산역5번출구,버스정류소,,37.53003386,126.9676785,10m
용산역,버스정류소,,37.52886661,126.9658225,10m
용산푸르지오써밋,버스정류소,,37.52757562,126.9647596,10m
용산푸르지오써밋,버스정류소,,37.52723093,126.9645788,10m
용산역광장앞,버스정류소,,37.528333,126.965617,10m
용산역사박물관.용산철도고등학교,버스정류소,,37.52559728,126.966015,10m
용산역사박물관.용산철도고등학교,버스정류소,,37.52530577,126.9671194,10m
용산세무서,버스정류소,,37.52373184,126.969244,10m
용산세무서,버스정류소,,37.52362139,126.9701544,10m
이촌역,버스정류소,,37.52266892,126.9739086,10m
이촌역,버스정류소,,37.52236347,126.9740269,10m
국립중앙박물관.용산가족공원,버스정류소,,37.52089801,126.9786512,10m
국립중앙박물관.용산가족공원,버스정류소,,37.52087549,126.9799562,10m
서빙고역교차로,버스정류소,,37.520427,126.9899,10m
서빙고초등학교,버스정류소,,37.52117112,126.9908894,10m
한강중학교,버스정류소,,37.52511406,126.9913627,10m
서빙고동금호베스트빌,버스정류소,,37.52263626,126.9907182,10m
서빙고동,버스정류소,,37.519851,126.992986,10m
서빙고동주민센터,버스정류소,,37.520384,126.9948813,10m
동빙고동,버스정류소,,37.52081836,126.9966907,10m
동빙고동,버스정류소,,37.52126256,126.997039,10m
보광신동아아파트.삼성리버빌아파트,버스정류소,,37.524738,127.0020297,10m
보광동신동아아파트,버스정류소,,37.52562379,127.0015149,10m
보광동주민센터,버스정류소,,37.52645912,127.0005046,10m
보광동,버스정류소,,37.528342,126.999026,10m
보광동,버스정류소,,37.52818201,126.9988968,10m
한국폴리텍1대학,버스정류소,,37.53019599,126.9967926,10m
한국폴리텍1대학,버스정류소,,37.53052935,126.9965748,10m
이태원역.보광동입구,버스정류소,,37.5334,126.994213,10m
이태원역.보광동입구,버스정류소,,37.53382242,126.994227,10m
한남역.용산노인종합복지관,버스정류소,,37.53122393,127.0067957,10m
한남역.용산노인종합복지관,버스정류소,,37.53066879,127.0077699,10m
이촌119안전센터.성촌공원,버스정류소,,37.53007998,126.9529475,10m
이촌로입구.성촌공원앞,버스정류소,,37.53017103,126.9546065,10m
이촌로입구.성촌공원앞,버스정류소,,37.52974742,126.9543511,10m
이촌2동주민센터,버스정류소,,37.52773644,126.955064,10m
이촌2동주민센터,버스정류소,,37.52770289,126.9548606,10m
이촌2동대림아파트.새남터성지,버스정류소,,37.52617531,126.9563231,10m
이촌2동대림아파트.새남터성지,버스정류소,,37.52602927,126.9561659,10m
서부이촌동입구,버스정류소,,37.52386405,126.9594954,10m
이촌2동강변아파트,버스정류소,,37.52344621,126.959781,10m
원효2동산호아파트후문,버스정류소,,37.53226001,126.9500127,10m
청암동강변삼성아파트,버스정류소,,37.53461443,126.9482435,10m
청암동강변삼성아파트,버스정류소,,37.534015,126.949323,10m
원효2동산호아파트,버스정류소,,37.53301777,126.9505416,10m
원효2동산호아파트,버스정류소,,37.5331089,126.9508278,10m
원효로풍전아파트,버스정류소,,37.53212865,126.9535225,10m
원효로풍전아파트,버스정류소,,37.53236877,126.9545136,10m
원효풍전아파트,버스정류소,,37.53274214,126.9559182,10m
원효2동주민센터,버스정류소,,37.5344941,126.9513962,10m
산천동리버힐삼성아파트,버스정류소,,37.53450034,126.9511923,10m
산천동.성심여중고후문,버스정류소,,37.53532039,126.9536425,10m
산천동.성심여중고후문,버스정류소,,37.53540813,126.9533822,10m
신창동세방아파트,버스정류소,,37.53570832,126.9549576,10m
신창동세방아파트,버스정류소,,37.53583005,126.9549471,10m
남이장군사당,버스정류소,,37.53665907,126.9579938,10m
남이장군사당,버스정류소,,37.53675446,126.9575932,10m
용문시장.용문동새마을금고,버스정류소,,37.53707162,126.9595338,10m
용문시장.용문동새마을금고,버스정류소,,37.53714921,126.9591968,10m
순천향병원입구,버스정류소,,37.53263055,127.0067506,10m
남산서울타워,버스정류소,,37.55101447,126.9911948,10m
청심경로당,버스정류소,,37.53388792,126.9506907,10m
삼성테마트,버스정류소,,37.53374669,126.9503849,10m
서빙고동금호베스트빌,버스정류소,,37.52261379,126.990991,10m
한남동하이페리온,버스정류소,,37.52784398,127.0055474,10m
서빙고역1번출구,버스정류소,,37.52003451,126.9894855,10m
문배동이안아파트앞,버스정류소,,37.53887,126.9710604,10m
갈월동.숙대입구역10번출구,버스정류소,,37.54638586,126.9716592,10m
삼각지역11번출구.전쟁기념관,버스정류소,,37.536204,126.974548,10m
숙대입구,버스정류소,,37.54453055,126.9705229,10m
원효대교북단,버스정류소,,37.53213836,126.9556103,10m
문배동이안아파트앞,버스정류소,,37.5383645,126.9707995,10m
순천향병원입구,버스정류소,,37.53269451,127.0069961,10m
숙명여대입구,버스정류소,,37.54488446,126.9696435,10m
서빙고초등학교,버스정류소,,37.52084129,126.99061,10m
한강대교스카이스위트,버스정류소,,37.52133077,126.9608162,10m
한강대교전망카페,버스정류소,,37.521236,126.9613435,10m
노들섬,버스정류소,,37.51751618,126.9586052,10m
노들섬,버스정류소,,37.51736384,126.9590377,10m
용암초등학교.이태원2동주민센터,버스정류소,,37.544673,126.990733,10m
용암초등학교.이태원2동주민센터,버스정류소,,37.54484967,126.9909321,10m
효창공원삼거리.윤봉길의사등묘역,버스정류소,,37.54460709,126.9638369,10m
서울역공항철도15번출구,버스정류소,,37.55307791,126.9688468,10m
용산꿈나무종합타운,버스정류소,,37.53848693,126.9672403,10m
남산도서관.용산도서관,버스정류소,,37.55234367,126.9818462,10m
하얏트호텔,버스정류소,,37.54066038,126.9969933,10m
한신아파트,버스정류소,,37.53898273,126.9866957,10m
순천향병원,버스정류소,,37.5332488,127.0048157,10m
용암경로당입구,버스정류소,,37.54059662,126.9869184,10m
한남오거리,버스정류소,,37.53309011,127.0066567,10m
가야랑앞,버스정류소,,37.54019528,126.9936041,10m
용암한신아파트,버스정류소,,37.54207717,126.9874353,10m
효창공원후문,버스정류소,,37.54706884,126.9608921,10m
디지텍고등학교앞,버스정류소,,37.53980318,126.991626,10m
우리들가정의원,버스정류소,,37.54323151,126.987795,10m
도원삼성래미안아파트101동앞,버스정류소,,37.53906859,126.9562321,10m
성도약국,버스정류소,,37.53945068,126.9895541,10m
남산교회입구,버스정류소,,37.54467134,126.9866472,10m
신애교회,버스정류소,,37.54551904,126.9584869,10m
시장,버스정류소,,37.53892255,126.9885516,10m
해방촌오거리,버스정류소,,37.54572995,126.9851475,10m
보광동주민센터,버스정류소,,37.52614734,127.0000973,10m
대한노인회중앙회,버스정류소,,37.54403681,126.9576287,10m
도원삼성래미안아파트101동앞,버스정류소,,37.53902226,126.9562966,10m
신흥교회앞,버스정류소,,37.54474572,126.9833868,10m
군인아파트,버스정류소,,37.52600406,126.9963177,10m
원효사.백범김구기념관,버스정류소,,37.54314017,126.9585663,10m
녹사평역,버스정류소,,37.53501104,126.9858713,10m
큰빛의집앞,버스정류소,,37.54454818,126.9819982,10m
몬드리안서울이태원,버스정류소,,37.528596,126.992589,10m
도원삼성래미안아파트,버스정류소,,37.53968795,126.9576859,10m
후암동종점,버스정류소,,37.54670079,126.9813662,10m
용산구청,버스정류소,,37.530573,126.991477,10m
용산고등학교,버스정류소,,37.5461364,126.9795092,10m
외빈차고,버스정류소,,37.531832,126.992242,10m
효창공원앞역.이봉창역사울림관,버스정류소,,37.53967102,126.9614323,10m
청화아파트,버스정류소,,37.531157,126.995387,10m
용산경찰서,버스정류소,,37.5410233,126.9698057,10m
숙대역7번출구,버스정류소,,37.54347578,126.9722968,10m
보광동삼거리,버스정류소,,37.530752,126.996811,10m
중앙하이츠빌라,버스정류소,,37.53856833,126.9594786,10m
원효우체국,버스정류소,,37.53896727,126.9673538,10m
보광초등학교,버스정류소,,37.531373,126.99673,10m
용문동시장.새마을금고,버스정류소,,37.5373483,126.9596343,10m
용문동주민센터,버스정류소,,37.53814739,126.959119,10m
문배어린이공원,버스정류소,,37.53693839,126.9697251,10m
문배어린이공원,버스정류소,,37.53714312,126.96959,10m
신용산역,버스정류소,,37.52991665,126.9674545,10m
용산우체국,버스정류소,,37.53137629,126.9703154,10m
숙대역5번출구,버스정류소,,37.54403813,126.9725115,10m
삼각지역,버스정류소,,37.53450655,126.9732731,10m
갈월동,버스정류소,,37.54632411,126.9720931,10m
보광초등학교후문앞,버스정류소,,37.533162,126.995635,10m
동자경로당,버스정류소,,37.55028671,126.9741955,10m
이태원역앞,버스정류소,,37.534339,126.9957,10m
녹사평역.용산구청,버스정류소,,37.53513958,126.9871838,10m
후암시장,버스정류소,,37.55006648,126.9768044,10m
후암동주민센터앞,버스정류소,,37.54836448,126.9777058,10m
제일기획,버스정류소,,37.53495,126.998418,10m
대성교회,버스정류소,,37.53869997,126.988452,10m
용산고등학교,버스정류소,,37.54590833,126.9789525,10m
성도약국,버스정류소,,37.53927766,126.9894308,10m
후암동종점,버스정류소,,37.54650165,126.9813595,10m
디지텍고등학교앞,버스정류소,,37.53971398,126.9918569,10m
큰빛의집앞,버스정류소,,37.54448328,126.9819077,10m
가야랑앞,버스정류소,,37.54008896,126.9937523,10m
신흥교회앞,버스정류소,,37.54462317,126.9833879,10m
해방촌오거리,버스정류소,,37.54570295,126.9853965,10m
남산교회입구,버스정류소,,37.54455059,126.9866223,10m
우리들가정의원,버스정류소,,37.54324231,126.9876592,10m
용암한신아파트,버스정류소,,37.54238805,126.9874137,10m
용암경로당입구,버스정류소,,37.54109853,126.9869602,10m
한신아파트,버스정류소,,37.53898812,126.9865577,10m
갑을빌딩,버스정류소,,37.54909587,126.9720388,10m
리버힐삼성아파트후문,버스정류소,,37.53494624,126.9487208,10m
만리시장입구,버스정류소,,37.5515678,126.9630413,10m
배문중고등학교,버스정류소,,37.55037493,126.9636168,10m
청파초등학교,버스정류소,,37.54858348,126.9633755,10m
동부이촌동,버스정류소,,37.52013925,126.972673,10m
강촌APT,버스정류소,,37.51910004,126.9761942,10m
남산그랜드하얏트호텔,버스정류소,,37.53982597,126.9973679,10m
청파초등학교,버스정류소,,37.54846998,126.9635057,10m
배문중고교,버스정류소,,37.55038127,126.9637289,10m
만리시장입구,버스정류소,,37.55177599,126.9631453,10m
청암자이아파트,버스정류소,,37.53486723,126.9485683,10m
신동아APT,버스정류소,,37.5175986,126.9853624,10m
신동아APT,버스정류소,,37.51792209,126.9853035,10m
강촌APT,버스정류소,,37.51890573,126.9773129,10m
동부이촌동,버스정류소,,37.52067791,126.9718175,10m
이촌동두산위브트레지움,버스정류소,,37.52149367,126.9659919,10m
이촌동두산위브트레지움,버스정류소,,37.52152836,126.9675735,10m
이촌현대아파트.금강병원,버스정류소,,37.51771874,126.9810408,10m
이촌현대아파트.금강병원,버스정류소,,37.51850812,126.978748,10m
한남역,버스정류소,,37.53120681,127.0067323,10m
도원삼성래미안아파트단지내,버스정류소,,37.5381983,126.9553881,10m
한남동주민센터,버스정류소,,37.534102,127.000603,10m
용산CJ나인파크,버스정류소,,37.53587066,126.969553,10m
용산e편한세상,버스정류소,,37.5344622,126.9672212,10m
이집트대사관.한남더힐아파트,버스정류소,,37.53525687,127.0112747,10m
이집트대사관.한남더힐아파트,버스정류소,,37.53624088,127.011431,10m
한남역,버스정류소,,37.53058499,127.0077438,10m
한남동,버스정류소,,37.53375693,127.0085732,10m
한남동,버스정류소,,37.53396315,127.0085657,10m
필리핀대사관,버스정류소,,37.54069996,126.9950933,10m
필리핀대사관,버스정류소,,37.54057021,126.99516,10m
전쟁기념관,버스정류소,,37.53840147,126.9734852,10m
용산역,버스정류소,,37.527598,126.964794,10m
국립중앙박물관,버스정류소,,37.52084762,126.9785496,10m
하얏트호텔,버스정류소,,37.54089188,126.9972013,10m
용마루고개.브라운스톤공덕아파트,버스정류소,,37.54113305,126.9568298,10m
서울역 1번 출구,지하철역,,126.9716163,37.55494758,10m
서울역 2번 출구,지하철역,,126.9716957,37.55443403,10m
서울역 3번 출구,지하철역,,126.9698511,37.55430744,10m
서울역 4번 출구,지하철역,,126.9731432,37.5574437,10m
서울역 5번 출구,지하철역,,126.9731434,37.55700221,10m
서울역 6번 출구,지하철역,,126.9733359,37.55682206,10m
서울역 7번 출구,지하철역,,126.9736189,37.55669598,10m
서울역 8번 출구,지하철역,,126.9735172,37.55616437,10m
서울역 9번 출구,지하철역,,126.9732796,37.55589402,10m
서울역 9-1번 출구,지하철역,,126.9727593,37.5549929,10m
서울역 10번 출구,지하철역,,126.9736876,37.55422726,10m
서울역 11번 출구,지하철역,,126.9729976,37.55336215,10m
서울역 12번 출구,지하철역,,126.9727037,37.55236198,10m
서울역 13번 출구,지하철역,,126.972285,37.55243396,10m
서울역 14번 출구,지하철역,,126.9724996,37.55334402,10m
서울역 15번 출구,지하철역,,126.9693873,37.5536586,10m
용산역 1번 출구,지하철역,,126.9650531,37.52894297,10m
용산역 2번 출구,지하철역,,126.9649735,37.52983494,10m
용산역 3번 출구,지하철역,,126.9635019,37.53164551,10m
신용산역 1번 출구,지하철역,,126.9688088,37.52986305,10m
신용산역 2번 출구,지하철역,,126.9675535,37.52854725,10m
신용산역 3번 출구,지하철역,,126.9669879,37.52851105,10m
신용산역 4번 출구,지하철역,,126.9675533,37.52912389,10m
신용산역 5번 출구,지하철역,,126.9679942,37.52987184,10m
신용산역 6번 출구,지하철역,,126.9684693,37.53005217,10m
삼각지역 1번 출구,지하철역,,126.9734117,37.53460344,10m
삼각지역 2번 출구,지하철역,,126.9730271,37.53422493,10m
삼각지역 3번 출구,지하철역,,126.9720997,37.5333147,10m
삼각지역 4번 출구,지하철역,,126.9717489,37.53353086,10m
삼각지역 5번 출구,지하철역,,126.972631,37.53446811,10m
삼각지역 6번 출구,지하철역,,126.9730043,37.53485563,10m
삼각지역 7번 출구,지하철역,,126.9733888,37.53531522,10m
삼각지역 8번 출구,지하철역,,126.9734113,37.53552246,10m
삼각지역 9번 출구,지하철역,,126.973694,37.5361352,10m
삼각지역 10번 출구,지하철역,,126.9739315,37.53638754,10m
삼각지역 11번 출구,지하철역,,126.9746898,37.53581106,10m
삼각지역 12번 출구,지하철역,,126.9747917,37.53554078,10m
삼각지역 13번 출구,지하철역,,126.9744298,37.53507218,10m
삼각지역 14번 출구,지하철역,,126.9741356,37.5350541,10m
숙대입구역 1번 출구,지하철역,,126.9721517,37.54562238,10m
숙대입구역 2번 출구,지하철역,,126.9723555,37.5453251,10m
숙대입구역 3번 출구,지하철역,,126.9723895,37.54502777,10m
숙대입구역 4번 출구,지하철역,,126.9722765,37.54476646,10m
숙대입구역 5번 출구,지하철역,,126.9724465,37.54411778,10m
숙대입구역 6번 출구,지하철역,,126.9725258,37.54381146,10m
숙대입구역 7번 출구,지하철역,,126.9721298,37.54373027,10m
숙대입구역 8번 출구,지하철역,,126.9720391,37.54408164,10m
숙대입구역 9번 출구,지하철역,,126.9718805,37.54468527,10m
숙대입구역 10번 출구,지하철역,,126.9717444,37.54547812,10m
남영역 1번 출구,지하철역,,126.9712479,37.54165776,10m
이촌역 1번 출구,지하철역,,126.9753167,37.52168349,10m
이촌역 2번 출구,지하철역,,126.9756898,37.52219713,10m
이촌역 3-1번 출구,지하철역,,126.9753167,37.52168349,10m
이촌역 4번 출구,지하철역,,126.9733708,37.52218762,10m
이촌역 5번 출구,지하철역,,126.9733707,37.52256605,10m
서빙고역 1번 출구,지하철역,,126.9893781,37.51988358,10m
서빙고역 2번 출구,지하철역,,126.9897402,37.51911776,10m
한남역 1번 출구,지하철역,,127.0080891,37.52929926,10m
효창공원앞역 1번 출구,지하철역,,126.9612237,37.53951953,10m
효창공원앞역 2번 출구,지하철역,,126.9615746,37.53938449,10m
효창공원앞역 3번 출구,지하철역,,126.9616426,37.53911421,10m
효창공원앞역 4번 출구,지하철역,,126.9625027,37.53873607,10m
효창공원앞역 5번 출구,지하철역,,126.963227,37.538466,10m
효창공원앞역 6번 출구,지하철역,,126.960941,37.53935725,10m
녹사평역 1번 출구,지하철역,,126.9863776,37.53529942,10m
녹사평역 2번 출구,지하철역,,126.9866378,37.53564183,10m
녹사평역 3번 출구,지하철역,,126.9868077,37.53449757,10m
녹사평역 4번 출구,지하철역,,126.9860609,37.53470472,10m
이태원역 1번 출구,지하철역,,126.9936414,37.53458824,10m
이태원역 2번 출구,지하철역,,126.994309,37.53463332,10m
이태원역 3번 출구,지하철역,,126.9943316,37.53441708,10m
이태원역 4번 출구,지하철역,,126.9936641,37.534372,10m
한강진역 1번 출구,지하철역,,127.0016294,37.54020163,10m
한강진역 2번 출구,지하철역,,127.0019688,37.54052599,10m
한강진역 3번 출구,지하철역,,127.0019462,37.5401746,10m
한강진역 4번 출구,지하철역,,126.9936641,37.534372,10m
